[
  {
   "clientName": "hi",
   "address": "448 S Hill St, Los Angeles, CA 90013",
   "description": "Walk dog around neighborhood",
    "creatorId": "1",
    "clientStatus": "approved",
    "reacts": ["test5", "test6"],
    "taskName": "Dog Walk",
    "coordinates": {"lat":34.048859,"lng":-118.251343},
    "staffId": "test2",
    "studentId": []
  },
  {
    "clientName": "momma",
    "address": "500 Mateo St, Los Angeles, CA 90013",
    "description": "Wash dishes",
     "creatorId": "2",
     "clientStatus": "approved",
     "taskName": "Washing Dishes",
     "coordinates": {"lat":34.041451,"lng":-118.232719},
     "staffId": "test2",
     "studentId": ["test1","test5"]
   },
   {
    "clientName": "JOE",
    "address": "1725 Naud St, Los Angeles, CA 90012",
    "description": "Clean the garage",
     "creatorId": "2",
     "clientStatus": "approved",
     "taskName": "Clean Garage",
     "coordinates": {"lat":34.068630,"lng":-118.226631},
     "staffId": "test2",
     "studentId": ["test6"]
   },
   {
    "clientName": "Reala",
    "address": "900 Wilshire Blvd fl 71, Los Angeles, CA 90017",
    "description": "Feed dog three scoops of kibble",
     "creatorId": "2",
     "clientStatus": "approved",
     "taskName": "Feed dog",
     "coordinates": {"lat":34.050090,"lng":-118.260330},
     "staffId": "test2",
     "studentId": ["test5"]
   },
   {
    "clientName": "Mat",
    "address": "114 E 2nd St, Los Angeles, CA 90012",
    "description": "Wash dishes",
     "creatorId": "2",
     "clientStatus": "approved",
     "taskName": "Washing Dishes",
     "coordinates": {"lat":34.050499,"lng":-118.244049},
     "staffId": "test2",
     "studentId": ["test7","test5"]
   },
   {
    "clientName": "Tree",
    "address": "3901 W 6th St, Los Angeles, CA 90020",
    "description": "test",
     "creatorId": "2",
     "clientStatus": "approved",
     "taskName": "Test",
     "coordinates": {"lat":34.063690,"lng":-118.308240},
     "staffId": "test2",
     "studentId": ["test7"]
   },
   {
    "clientName": "Mojojojo",
    "address": "2132 E 7th Pl, Los Angeles, CA 90021",
    "description": "test",
     "creatorId": "2",
     "clientStatus": "approved",
     "taskName": "Test",
     "coordinates": {"lat":34.033510,"lng":-118.228680},
     "staffId": "test2",
     "studentId": ["test6","test5"]
   },
   {
    "clientName": "Rocky",
    "address": "10100 Constellation Blvd, Los Angeles, CA, United States",
    "description": "test",
     "creatorId": "2",
     "clientStatus": "approved",
     "taskName": "Test",
     "coordinates": {"lat":34.05839157104492,"lng":-118.41632843017578},
     "staffId": "test2",
     "studentId": ["test1"]
   },

  {
    "clientName": "your",
    "taskName": "Dog walking",
    "address": "2121 E 7th Pl, Los Angeles, CA 90021",
    "description": "Walk dog around neighborhood",
    "creatorId": "1",
    "clientStatus": "complete",
    "complete": true,
    "coordinates": {"lat":34.041451,"lng":-118.232719},
    "staffId": "test2",
    "studentId": ["test7"]

  },
  {
    "clientName": "Mark Johnson",
    "taskName": "Lawn mowing",
    "location": "sesame street",
    "description": "Mow the lawn",
     "creatorId": "1",
     "clientStatus": "approved",
     "complete": true,
     "address": "21 E 7th Pl, Los Angeles, CA 90021",
     "coordinates": {"lat":34.068630,"lng":-118.226631},
     "staffId": "test2",
     "studentId": ["test1"]
   },
   {
    "clientName": "Mark Johnson",
    "taskName": "Dog Walk",
    "address": "3214 Faker Street",
    "wage": 15,
    "description": "I want you to walk my dog, he is big and red and named Clifford",
    "clientStatus": "complete",
    "complete": true,
    "creatorId": 23,
    "coordinates": {"lat":34.048859,"lng":-118.251343},
    "staffId": "test2",
    "studentId": ["test5"]
   },
   {
    "clientName": "Mark Rehab",
    "taskName": "Washing Dishes",
    "address": "San Francisco",
    "wage": 20,
    "description": "I want you to wash my dishes, they've been piling up!!",
    "clientStatus": "approved",
    "complete": false,
    "creatorId": 23,
    "coordinates": {"lat":34.048859,"lng":-118.251343},
    "staffId": "test2",
    "studentId": ["test5"]
   },
   {
    "clientName": "Markie Thomas",
    "taskName": "Cat sitting",
    "address": "500 Mateo St, Los Angeles, CA 90013",
    "wage": 20,
    "description": "My cat, Salem, needs to be sat.",
    "clientStatus": "approved",
    "complete": false,
    "creatorId": 90,
    "coordinates": {"lat":34.048859,"lng":-118.251343},
    "staffId": "test2",
    "studentId": ["test5"]
   },
   {
    "clientName": "Markie Thomas",
    "taskName": "Sweeping the floors",
    "address": "2345 San Jose",
    "wage": 10,
    "description": "Our floor is dirty, you need to sweep it or its just going to get worse!",
    "clientStatus": "approved",
    "complete": false,
    "creatorId": 2031,
    "coordinates": {"lat":34.048859,"lng":-118.251343},
    "staffId": "test2",
    "studentId": ["test5"]
   },
   {
    "clientName": "Markie Thomas",
    "taskName": "Washing my dog",
    "address": "123 Fake Street",
    "wage": 50,
    "description": "He is a smelly old dog and needs-a-washing.",
    "clientStatus": "approved",
    "complete": false,
    "creatorId": 3421,
    "coordinates": {"lat":34.048859,"lng":-118.251343},
    "staffId": "test2",
    "studentId": ["test5"]
   },
   {
    "clientName": "Markie Thomas",
    "taskName": "Teach me how to dougie",
    "address": "123 Fake street",
    "wage": 100,
    "description": "I can't dance, and I want to learn. Someone teach me how to dance!",
    "clientStatus": "approved",
    "complete": false,
    "creatorId": 9402,
    "coordinates": {"lat":34.048859,"lng":-118.251343},
    "staffId": "test2",
    "studentId": ["test5"]
   },
   {
    "clientName": "Markie Thomas",
    "taskName": "Raking the leaves",
    "address": "2121 E 7th Pl, Los Angeles, CA 90021",
    "wage": 50,
    "description": "Need you to rake the leaves in my yard. I can't even see the drive way floor anymore",
    "clientStatus": "approved",
    "complete": false,
    "creatorId": 43221,
    "coordinates": {"lat":34.048859,"lng":-118.251343},
    "staffId": "test2",
    "studentId": ["test5"]
   },
   {
    "clientName": "Markie Thomas",
    "taskName": "Baby Sitting",
    "address": "231 Bubble Street",
    "wage": 25,
    "description": "Please I need help baby sitting 9 of my kids",
    "clientStatus": "in-progress",
    "complete": false,
    "creatorId": 25,
    "coordinates": {"lat":34.048859,"lng":-118.251343},
    "staffId": "test2",
    "studentId": ["test5"]
   },
   {
    "clientName": "Markie Thomas",
    "taskName": "Baby Sitting",
    "address": "55 Fake Street",
    "wage": 25,
    "description": "Please I need help baby sitting 20 of my kids",
    "clientStatus": "complete",
    "complete": true,
    "creatorId": 5921,
    "coordinates": {"lat":34.048859,"lng":-118.251343},
    "staffId": "test2",
    "studentId": ["test5"]
   },
   {
    "clientName": "Markie Thomas",
    "taskName": "Video Games",
    "wage": 25,
    "address": "55 Fake Street",
    "description": "Teach me how to play video games",
    "clientStatus": "complete",
    "complete": true,
    "creatorId": 23912,
    "coordinates": {"lat":34.048859,"lng":-118.251343},
    "staffId": "test2",
    "studentId": ["test5"]
   }
]






// NEW TICKETS

[{
  "clientName": "Tiffany Chan",
  "taskName": "Laundry",
  "wage": 15,
  "description": "I need someone to help me do my laundry. I have been backed up for 4 whole days!!",
  "address": "1725 NAUD ST, LOS ANGELES, CA 90012",
  "coordinates": {"lat":34.069040,"lng":-118.225920},
  "clientStatus": "approved",
  "creatorId": "PkpSTRiHaNTsy2XFfhGkcCTFH712",
  "studentId":"['lZeIE21D9eeTuUNYjXQPHCRgufn1']",
  "voteUp": [],
  "voteDown": [],
  "staffId": "a6WSGH6d4zdvHI1tQH72dnAojKb2",
  "createdAt": "2022-07-01T18:51:09.458Z",
  "completed": false
},{
  "clientName": "Brian Bui",
  "taskName": "Hack Reactor Tutor",
  "wage": 10,
  "description": "Can someone teach me React? What is it? Like Emojis?! I need help please!",
  "address": "48 S HILL ST, LOS ANGELES, CA 90013",
  "coordinates": {"lat":34.049540,"lng":-118.251120},
  "clientStatus": "approved",
  "creatorId": "PkpSTRiHaNTsy2XFfhGkcCTFH712",
  "studentId": null,
  "voteUp": [],
  "voteDown": [],
  "staffId": null,
  "createdAt": "2022-06-301T18:51:09.458Z",
  "completed": false
},
{
  "clientName": "Ariana Grande",
  "taskName": "Singing Coach",
  "wage": 23,
  "description": "I need a student to help me teach me how to sing. I am awful :( yuh",
  "address": "1821 Daly St, Los Angeles, CA 90031",
  "coordinates": {"lat":34.063881,"lng":-118.215607},
  "clientStatus": "approved",
  "creatorId": "PkpSTRiHaNTsy2XFfhGkcCTFH712",
  "studentId": null,
  "voteUp": [],
  "voteDown": [],
  "staffId": null,
  "createdAt": "2022-07-01T18:51:09.458Z",
  "completed": false
},
{
  "clientName": "Kevin Niu",
  "taskName": "Retrospective",
  "wage": 42,
  "description": "I am hiring a student to agree with my disagreements in Hack Reactor.",
  "address": "6000 Sepulveda Blvd, Culver City, CA 90230",
  "coordinates": {"lat":33.985409,"lng":-118.395088},
  "clientStatus": "complete",
  "creatorId":  "QVTPWoDlvxUmTbgfz3T3GqA4Vj62",
  "studentId": ["lZeIE21D9eeTuUNYjXQPHCRgufn1"],
  "voteUp": [],
  "voteDown": [],
  "staffId": "a6WSGH6d4zdvHI1tQH72dnAojKb2",
  "createdAt": "2022-06-29T18:51:09.458Z",
  "completed": true
},
{
  "clientName": "Eric Do",
  "taskName": "Hack Reactor SEIR",
  "wage": 30,
  "description": "Someone teach these damn kids, I am tired. Also I need someone to say Hello to me every time I start a lecture.",
  "address": "1000 W Redondo Beach Blvd, Gardena, CA 90247",
  "coordinates": {"lat":33.891991,"lng":-118.292732},
  "clientStatus": "complete",
  "creatorId": "PkpSTRiHaNTsy2XFfhGkcCTFH712",
  "studentId":["lZeIE21D9eeTuUNYjXQPHCRgufn1"],
  "voteUp": [],
  "voteDown": [],
  "staffId": "cebPl6QR9cRkwAuQ3eLjQkbIOlj2",
  "createdAt": "2022-06-30T18:51:09.458Z",
  "completed": true
},
{
  "clientName": "Skipper",
  "taskName": "Friday",
  "wage": 5,
  "description": "FRIDAY FRIDAY GOTTA GET DOWN ON FRIDAY!!",
  "address": "7313-7351 S Marine Ave, Playa Del Rey, CA 90293",
  "coordinates": {"lat":33.953806,"lng":-118.44821},
  "clientStatus": "approved",
  "creatorId": "QVTPWoDlvxUmTbgfz3T3GqA4Vj62",
  "studentId": null,
  "voteUp": [],
  "voteDown": [],
  "staffId": null,
  "createdAt": "2022-07-01T18:51:09.458Z",
  "completed": false
},
{
  "clientName": "Jake Daurham",
  "taskName": "Gather me snails",
  "wage": 2.50,
  "description": "I need snails to race! Someone FIND ME SNAILS!",
  "address": "1200 Getty Center Dr, Los Angeles, CA 90049",
  "coordinates": {"lat":34.0769513,"lng":-118.475712},
  "clientStatus": "completed",
  "creatorId": "QVTPWoDlvxUmTbgfz3T3GqA4Vj62",
  "studentId": ["lZeIE21D9eeTuUNYjXQPHCRgufn1"],
  "voteUp": [],
  "voteDown": [],
  "staffId": "cebPl6QR9cRkwAuQ3eLjQkbIOlj2",
  "createdAt": "2022-06-29T18:51:09.458Z",
  "completed": true
},
{
  "clientName": "Hansol Ji",
  "taskName": "Cook Bibimbap",
  "wage": 50,
  "description": "I need someone to help me cook for a big potluck!",
  "address": "3575 Wilshire Blvd, Los Angeles, CA 90010",
  "coordinates": {"lat":34.0620669,"lng":-118.3026691},
  "clientStatus": "approved",
  "creatorId": "QVTPWoDlvxUmTbgfz3T3GqA4Vj62",
  "studentId":["lZeIE21D9eeTuUNYjXQPHCRgufn1"],
  "voteUp": [],
  "voteDown": [],
  "staffId": "cebPl6QR9cRkwAuQ3eLjQkbIOlj2",
  "createdAt": "2022-06-28T18:51:09.458Z",
  "completed": false
},
{
  "clientName": "Brian Bui",
  "taskName": "Tutor Me",
  "wage": 100,
  "description": "I need someone to help me with interview prep and tutor me in TypeScript.",
  "address": "11004 Atlantic Ave, Lynwood, CA 90262",
  "coordinates": {"lat":33.9301682,"lng":-118.1834739},
  "clientStatus": "approved",
  "creatorId":"6irCmp7vH5OIzySB2Pw6HpAsPYL2",
  "studentId": null,
  "voteUp": [],
  "voteDown": [],
  "staffId": null,
  "createdAt": "2022-07-01T18:51:09.458Z",
  "completed": false
},
{
  "clientName": "Leia Harlow",
  "taskName": "Rave Buddy",
  "wage": 25,
  "description": "Someone go to RL Grime with me.",
  "address": "4600 Virginia Rd, Long Beach, CA 90807",
  "coordinates": {"lat":33.8381365,"lng":-118.1956955},
  "clientStatus": "approved",
  "creatorId": "PkpSTRiHaNTsy2XFfhGkcCTFH712",
  "studentId": null,
  "voteUp": [],
  "voteDown": [],
  "staffId": null,
  "createdAt": "2022-06-30T18:51:09.458Z",
  "completed": false
},
{
  "clientName": "Jessica Yu",
  "taskName": "Dog Sitting",
  "wage": 20,
  "description": "Someone needs to dog sit my shiba! He is so fat and chunky and needs someone to dog walk him",
  "address": "41313 Disneyland Dr, Anaheim, CA 92802",
  "coordinates": {"lat":33.8160535,"lng":-117.9280836},
  "clientStatus": "complete",
  "creatorId":"6irCmp7vH5OIzySB2Pw6HpAsPYL2",
  "studentId": ["lZeIE21D9eeTuUNYjXQPHCRgufn1"],
  "voteUp": [],
  "voteDown": [],
  "staffId": _________,
  "createdAt": "2022-06-30T18:51:09.458Z",
  "completed": true
},
{
  "clientName": "Christy Bui",
  "taskName": "Dishes",
  "wage": 9,
  "description": "Someone to do my dishes. They haven't been done in 10 days and are piling up :(",
  "address": "1335 E 103rd St, Los Angeles, CA 90002",
  "coordinates": {"lat":33.943368,"lng":-118.2515229},
  "clientStatus": "approved",
  "creatorId":"6irCmp7vH5OIzySB2Pw6HpAsPYL2",
  "studentId": null,
  "voteUp": [],
  "voteDown": [],
  "staffId": null,
  "createdAt": "2022-07-01T18:51:09.458Z",
  "completed": false
}
]