[
  {
   "clientName": "hi",
   "address": "448 S Hill St, Los Angeles, CA 90013",
   "description": "Walk dog around neighborhood",
    "creatorId": "1",
    "clientStatus": "approved",
    "taskName": "Dog Walk",
    "coordinates": {"lat":34.048859,"lng":-118.251343},
    "staffId": "test2",
    "studentId": ["test1","test7"]
  },
  {
    "clientName": "momma",
    "address": "500 Mateo St, Los Angeles, CA 90013",
    "description": "Wash dishes",
     "creatorId": "2",
     "clientStatus": "approved",
     "taskName": "Washing Dishes",
     "coordinates": {"lat":34.041451,"lng":-118.232719},
     "staffId": "test2",
     "studentId": ["test1","test5"]
   },
   {
    "clientName": "JOE",
    "address": "1725 Naud St, Los Angeles, CA 90012",
    "description": "Clean the garage",
     "creatorId": "2",
     "clientStatus": "approved",
     "taskName": "Clean Garage",
     "coordinates": {"lat":34.068630,"lng":-118.226631},
     "staffId": "test2",
     "studentId": ["test6"]
   },
   {
    "clientName": "Reala",
    "address": "900 Wilshire Blvd fl 71, Los Angeles, CA 90017",
    "description": "Feed dog three scoops of kibble",
     "creatorId": "2",
     "clientStatus": "approved",
     "taskName": "Feed dog",
     "coordinates": {"lat":34.050090,"lng":-118.260330},
     "staffId": "test2",
     "studentId": ["test5"]
   },
   {
    "clientName": "Mat",
    "address": "114 E 2nd St, Los Angeles, CA 90012",
    "description": "Wash dishes",
     "creatorId": "2",
     "clientStatus": "approved",
     "taskName": "Washing Dishes",
     "coordinates": {"lat":34.050499,"lng":-118.244049},
     "staffId": "test2",
     "studentId": ["test7","test5"]
   },
   {
    "clientName": "Tree",
    "address": "3901 W 6th St, Los Angeles, CA 90020",
    "description": "test",
     "creatorId": "2",
     "clientStatus": "approved",
     "taskName": "Test",
     "coordinates": {"lat":34.063690,"lng":-118.308240},
     "staffId": "test2",
     "studentId": ["test7"]
   },
   {
    "clientName": "Mojojojo",
    "address": "2132 E 7th Pl, Los Angeles, CA 90021",
    "description": "test",
     "creatorId": "2",
     "clientStatus": "approved",
     "taskName": "Test",
     "coordinates": {"lat":34.033510,"lng":-118.228680},
     "staffId": "test2",
     "studentId": ["test6","test5"]
   },
   {
    "clientName": "Rocky",
    "address": "10100 Constellation Blvd, Los Angeles, CA, United States",
    "description": "test",
     "creatorId": "2",
     "clientStatus": "approved",
     "taskName": "Test",
     "coordinates": {"lat":34.05839157104492,"lng":-118.41632843017578},
     "staffId": "test2",
     "studentId": ["test1"]
   },

  {
    "clientName": "your",
    "taskName": "Dog walking",
    "address": "2121 E 7th Pl, Los Angeles, CA 90021",
    "description": "Walk dog around neighborhood",
    "creatorId": "1",
    "clientStatus": "complete",
    "complete": true,
    "coordinates": {"lat":34.041451,"lng":-118.232719},
    "staffId": "test2",
    "studentId": ["test7"]

  },
  {
    "clientName": "Mark Johnson",
    "taskName": "Lawn mowing",
    "location": "sesame street",
    "description": "Mow the lawn",
     "creatorId": "1",
     "clientStatus": "approved",
     "complete": true,
     "address": "21 E 7th Pl, Los Angeles, CA 90021",
     "coordinates": {"lat":34.068630,"lng":-118.226631},
     "staffId": "test2",
     "studentId": ["test1"]
   },
   {
    "clientName": "Mark Johnson",
    "taskName": "Dog Walk",
    "address": "3214 Faker Street",
    "wage": 15,
    "description": "I want you to walk my dog, he is big and red and named Clifford",
    "clientStatus": "complete",
    "complete": true,
    "creatorId": 23,
    "coordinates": {"lat":34.048859,"lng":-118.251343},
    "staffId": "test2",
    "studentId": ["test5"]
   },
   {
    "clientName": "Mark Rehab",
    "taskName": "Washing Dishes",
    "address": "San Francisco",
    "wage": 20,
    "description": "I want you to wash my dishes, they've been piling up!!",
    "clientStatus": "approved",
    "complete": false,
    "creatorId": 23,
    "coordinates": {"lat":34.048859,"lng":-118.251343},
    "staffId": "test2",
    "studentId": ["test5"]
   },
   {
    "clientName": "Markie Thomas",
    "taskName": "Cat sitting",
    "address": "500 Mateo St, Los Angeles, CA 90013",
    "wage": 20,
    "description": "My cat, Salem, needs to be sat.",
    "clientStatus": "approved",
    "complete": false,
    "creatorId": 90,
    "coordinates": {"lat":34.048859,"lng":-118.251343},
    "staffId": "test2",
    "studentId": ["test5"]
   },
   {
    "clientName": "Markie Thomas",
    "taskName": "Sweeping the floors",
    "address": "2345 San Jose",
    "wage": 10,
    "description": "Our floor is dirty, you need to sweep it or its just going to get worse!",
    "clientStatus": "approved",
    "complete": false,
    "creatorId": 2031,
    "coordinates": {"lat":34.048859,"lng":-118.251343},
    "staffId": "test2",
    "studentId": ["test5"]
   },
   {
    "clientName": "Markie Thomas",
    "taskName": "Washing my dog",
    "address": "123 Fake Street",
    "wage": 50,
    "description": "He is a smelly old dog and needs-a-washing.",
    "clientStatus": "approved",
    "complete": false,
    "creatorId": 3421,
    "coordinates": {"lat":34.048859,"lng":-118.251343},
    "staffId": "test2",
    "studentId": ["test5"]
   },
   {
    "clientName": "Markie Thomas",
    "taskName": "Teach me how to dougie",
    "address": "123 Fake street",
    "wage": 100,
    "description": "I can't dance, and I want to learn. Someone teach me how to dance!",
    "clientStatus": "approved",
    "complete": false,
    "creatorId": 9402,
    "coordinates": {"lat":34.048859,"lng":-118.251343},
    "staffId": "test2",
    "studentId": ["test5"]
   },
   {
    "clientName": "Markie Thomas",
    "taskName": "Raking the leaves",
    "address": "2121 E 7th Pl, Los Angeles, CA 90021",
    "wage": 50,
    "description": "Need you to rake the leaves in my yard. I can't even see the drive way floor anymore",
    "clientStatus": "approved",
    "complete": false,
    "creatorId": 43221,
    "coordinates": {"lat":34.048859,"lng":-118.251343},
    "staffId": "test2",
    "studentId": ["test5"]
   },
   {
    "clientName": "Markie Thomas",
    "taskName": "Baby Sitting",
    "address": "231 Bubble Street",
    "wage": 25,
    "description": "Please I need help baby sitting 9 of my kids",
    "clientStatus": "in-progress",
    "complete": false,
    "creatorId": 25,
    "coordinates": {"lat":34.048859,"lng":-118.251343},
    "staffId": "test2",
    "studentId": ["test5"]
   },
   {
    "clientName": "Markie Thomas",
    "taskName": "Baby Sitting",
    "address": "55 Fake Street",
    "wage": 25,
    "description": "Please I need help baby sitting 20 of my kids",
    "clientStatus": "complete",
    "complete": true,
    "creatorId": 5921,
    "coordinates": {"lat":34.048859,"lng":-118.251343},
    "staffId": "test2",
    "studentId": ["test5"]
   },
   {
    "clientName": "Markie Thomas",
    "taskName": "Video Games",
    "wage": 25,
    "address": "55 Fake Street",
    "description": "Teach me how to play video games",
    "clientStatus": "complete",
    "complete": true,
    "creatorId": 23912,
    "coordinates": {"lat":34.048859,"lng":-118.251343},
    "staffId": "test2",
    "studentId": ["test5"]
   }
]